[
  {
    "iata": "ATL",
    "icao": "KATL",
    "name": "Hartsfield-Jackson Atlanta International Airport",
    "city": "Atlanta",
    "state": "GA",
    "region": "Southeast",
    "latitude": 33.6407,
    "longitude": -84.4277,
    "estimated_gates": 192,
    "runways": 5,
    "hub_size": "large"
  },
  {
    "iata": "LAX",
    "icao": "KLAX",
    "name": "Los Angeles International Airport",
    "city": "Los Angeles",
    "state": "CA",
    "region": "West",
    "latitude": 33.9425,
    "longitude": -118.4081,
    "estimated_gates": 146,
    "runways": 4,
    "hub_size": "large"
  },
  {
    "iata": "ORD",
    "icao": "KORD",
    "name": "O'Hare International Airport",
    "city": "Chicago",
    "state": "IL",
    "region": "Midwest",
    "latitude": 41.9742,
    "longitude": -87.9073,
    "estimated_gates": 191,
    "runways": 8,
    "hub_size": "large"
  },
  {
    "iata": "DFW",
    "icao": "KDFW",
    "name": "Dallas/Fort Worth International Airport",
    "city": "Dallas-Fort Worth",
    "state": "TX",
    "region": "Southwest",
    "latitude": 32.8998,
    "longitude": -97.0403,
    "estimated_gates": 165,
    "runways": 7,
    "hub_size": "large"
  },
  {
    "iata": "DEN",
    "icao": "KDEN",
    "name": "Denver International Airport",
    "city": "Denver",
    "state": "CO",
    "region": "Mountain",
    "latitude": 39.8561,
    "longitude": -104.6737,
    "estimated_gates": 140,
    "runways": 6,
    "hub_size": "large"
  },
  {
    "iata": "JFK",
    "icao": "KJFK",
    "name": "John F. Kennedy International Airport",
    "city": "New York",
    "state": "NY",
    "region": "Mid-Atlantic",
    "latitude": 40.6413,
    "longitude": -73.7781,
    "estimated_gates": 128,
    "runways": 4,
    "hub_size": "large"
  },
  {
    "iata": "SFO",
    "icao": "KSFO",
    "name": "San Francisco International Airport",
    "city": "San Francisco",
    "state": "CA",
    "region": "West",
    "latitude": 37.6213,
    "longitude": -122.3790,
    "estimated_gates": 115,
    "runways": 4,
    "hub_size": "large"
  },
  {
    "iata": "SEA",
    "icao": "KSEA",
    "name": "Seattle-Tacoma International Airport",
    "city": "Seattle",
    "state": "WA",
    "region": "West",
    "latitude": 47.4502,
    "longitude": -122.3088,
    "estimated_gates": 90,
    "runways": 3,
    "hub_size": "large"
  },
  {
    "iata": "MCO",
    "icao": "KMCO",
    "name": "Orlando International Airport",
    "city": "Orlando",
    "state": "FL",
    "region": "Southeast",
    "latitude": 28.4312,
    "longitude": -81.3081,
    "estimated_gates": 129,
    "runways": 4,
    "hub_size": "large"
  },
  {
    "iata": "EWR",
    "icao": "KEWR",
    "name": "Newark Liberty International Airport",
    "city": "Newark",
    "state": "NJ",
    "region": "Mid-Atlantic",
    "latitude": 40.6895,
    "longitude": -74.1745,
    "estimated_gates": 120,
    "runways": 3,
    "hub_size": "large"
  },
  {
    "iata": "LGA",
    "icao": "KLGA",
    "name": "LaGuardia Airport",
    "city": "New York",
    "state": "NY",
    "region": "Mid-Atlantic",
    "latitude": 40.7769,
    "longitude": -73.8740,
    "estimated_gates": 72,
    "runways": 2,
    "hub_size": "large"
  },
  {
    "iata": "MIA",
    "icao": "KMIA",
    "name": "Miami International Airport",
    "city": "Miami",
    "state": "FL",
    "region": "Southeast",
    "latitude": 25.7959,
    "longitude": -80.2870,
    "estimated_gates": 131,
    "runways": 4,
    "hub_size": "large"
  },
  {
    "iata": "PHX",
    "icao": "KPHX",
    "name": "Phoenix Sky Harbor International Airport",
    "city": "Phoenix",
    "state": "AZ",
    "region": "Mountain",
    "latitude": 33.4373,
    "longitude": -112.0078,
    "estimated_gates": 120,
    "runways": 3,
    "hub_size": "large"
  },
  {
    "iata": "IAH",
    "icao": "KIAH",
    "name": "George Bush Intercontinental Airport",
    "city": "Houston",
    "state": "TX",
    "region": "Southwest",
    "latitude": 29.9902,
    "longitude": -95.3368,
    "estimated_gates": 130,
    "runways": 5,
    "hub_size": "large"
  },
  {
    "iata": "BOS",
    "icao": "KBOS",
    "name": "Boston Logan International Airport",
    "city": "Boston",
    "state": "MA",
    "region": "New England",
    "latitude": 42.3656,
    "longitude": -71.0096,
    "estimated_gates": 102,
    "runways": 6,
    "hub_size": "large"
  },
  {
    "iata": "FLL",
    "icao": "KFLL",
    "name": "Fort Lauderdale-Hollywood International Airport",
    "city": "Fort Lauderdale",
    "state": "FL",
    "region": "Southeast",
    "latitude": 26.0742,
    "longitude": -80.1506,
    "estimated_gates": 62,
    "runways": 2,
    "hub_size": "large"
  },
  {
    "iata": "MSP",
    "icao": "KMSP",
    "name": "Minneapolis-Saint Paul International Airport",
    "city": "Minneapolis",
    "state": "MN",
    "region": "Midwest",
    "latitude": 44.8848,
    "longitude": -93.2223,
    "estimated_gates": 117,
    "runways": 4,
    "hub_size": "large"
  },
  {
    "iata": "LAS",
    "icao": "KLAS",
    "name": "Harry Reid International Airport",
    "city": "Las Vegas",
    "state": "NV",
    "region": "Mountain",
    "latitude": 36.0840,
    "longitude": -115.1537,
    "estimated_gates": 93,
    "runways": 4,
    "hub_size": "large"
  },
  {
    "iata": "DTW",
    "icao": "KDTW",
    "name": "Detroit Metropolitan Wayne County Airport",
    "city": "Detroit",
    "state": "MI",
    "region": "Midwest",
    "latitude": 42.2162,
    "longitude": -83.3554,
    "estimated_gates": 129,
    "runways": 6,
    "hub_size": "large"
  },
  {
    "iata": "PHL",
    "icao": "KPHL",
    "name": "Philadelphia International Airport",
    "city": "Philadelphia",
    "state": "PA",
    "region": "Mid-Atlantic",
    "latitude": 39.8744,
    "longitude": -75.2424,
    "estimated_gates": 126,
    "runways": 4,
    "hub_size": "large"
  },
  {
    "iata": "CLT",
    "icao": "KCLT",
    "name": "Charlotte Douglas International Airport",
    "city": "Charlotte",
    "state": "NC",
    "region": "Southeast",
    "latitude": 35.2140,
    "longitude": -80.9431,
    "estimated_gates": 114,
    "runways": 4,
    "hub_size": "large"
  },
  {
    "iata": "SLC",
    "icao": "KSLC",
    "name": "Salt Lake City International Airport",
    "city": "Salt Lake City",
    "state": "UT",
    "region": "Mountain",
    "latitude": 40.7884,
    "longitude": -111.9778,
    "estimated_gates": 97,
    "runways": 4,
    "hub_size": "large"
  },
  {
    "iata": "IAD",
    "icao": "KIAD",
    "name": "Washington Dulles International Airport",
    "city": "Dulles",
    "state": "VA",
    "region": "Mid-Atlantic",
    "latitude": 38.9531,
    "longitude": -77.4565,
    "estimated_gates": 123,
    "runways": 4,
    "hub_size": "large"
  },
  {
    "iata": "DCA",
    "icao": "KDCA",
    "name": "Ronald Reagan Washington National Airport",
    "city": "Arlington",
    "state": "VA",
    "region": "Mid-Atlantic",
    "latitude": 38.8512,
    "longitude": -77.0402,
    "estimated_gates": 44,
    "runways": 3,
    "hub_size": "large"
  },
  {
    "iata": "BWI",
    "icao": "KBWI",
    "name": "Baltimore/Washington International Airport",
    "city": "Baltimore",
    "state": "MD",
    "region": "Mid-Atlantic",
    "latitude": 39.1754,
    "longitude": -76.6684,
    "estimated_gates": 75,
    "runways": 4,
    "hub_size": "large"
  },
  {
    "iata": "TPA",
    "icao": "KTPA",
    "name": "Tampa International Airport",
    "city": "Tampa",
    "state": "FL",
    "region": "Southeast",
    "latitude": 27.9755,
    "longitude": -82.5332,
    "estimated_gates": 59,
    "runways": 3,
    "hub_size": "medium"
  },
  {
    "iata": "SAN",
    "icao": "KSAN",
    "name": "San Diego International Airport",
    "city": "San Diego",
    "state": "CA",
    "region": "West",
    "latitude": 32.7338,
    "longitude": -117.1933,
    "estimated_gates": 51,
    "runways": 1,
    "hub_size": "large"
  },
  {
    "iata": "PDX",
    "icao": "KPDX",
    "name": "Portland International Airport",
    "city": "Portland",
    "state": "OR",
    "region": "West",
    "latitude": 45.5898,
    "longitude": -122.5951,
    "estimated_gates": 60,
    "runways": 3,
    "hub_size": "medium"
  },
  {
    "iata": "BNA",
    "icao": "KBNA",
    "name": "Nashville International Airport",
    "city": "Nashville",
    "state": "TN",
    "region": "Southeast",
    "latitude": 36.1263,
    "longitude": -86.6774,
    "estimated_gates": 55,
    "runways": 4,
    "hub_size": "medium"
  },
  {
    "iata": "AUS",
    "icao": "KAUS",
    "name": "Austin-Bergstrom International Airport",
    "city": "Austin",
    "state": "TX",
    "region": "Southwest",
    "latitude": 30.1975,
    "longitude": -97.6664,
    "estimated_gates": 34,
    "runways": 2,
    "hub_size": "medium"
  },
  {
    "iata": "STL",
    "icao": "KSTL",
    "name": "St. Louis Lambert International Airport",
    "city": "St. Louis",
    "state": "MO",
    "region": "Midwest",
    "latitude": 38.7487,
    "longitude": -90.3700,
    "estimated_gates": 56,
    "runways": 4,
    "hub_size": "medium"
  },
  {
    "iata": "HNL",
    "icao": "PHNL",
    "name": "Daniel K. Inouye International Airport",
    "city": "Honolulu",
    "state": "HI",
    "region": "Pacific",
    "latitude": 21.3187,
    "longitude": -157.9225,
    "estimated_gates": 54,
    "runways": 4,
    "hub_size": "medium"
  },
  {
    "iata": "MSY",
    "icao": "KMSY",
    "name": "Louis Armstrong New Orleans International Airport",
    "city": "New Orleans",
    "state": "LA",
    "region": "Southeast",
    "latitude": 29.9934,
    "longitude": -90.2580,
    "estimated_gates": 42,
    "runways": 2,
    "hub_size": "medium"
  },
  {
    "iata": "RDU",
    "icao": "KRDU",
    "name": "Raleigh-Durham International Airport",
    "city": "Raleigh",
    "state": "NC",
    "region": "Southeast",
    "latitude": 35.8776,
    "longitude": -78.7875,
    "estimated_gates": 39,
    "runways": 3,
    "hub_size": "medium"
  },
  {
    "iata": "MCI",
    "icao": "KMCI",
    "name": "Kansas City International Airport",
    "city": "Kansas City",
    "state": "MO",
    "region": "Midwest",
    "latitude": 39.2976,
    "longitude": -94.7139,
    "estimated_gates": 39,
    "runways": 3,
    "hub_size": "medium"
  },
  {
    "iata": "SNA",
    "icao": "KSNA",
    "name": "John Wayne Airport (Orange County)",
    "city": "Santa Ana",
    "state": "CA",
    "region": "West",
    "latitude": 33.6757,
    "longitude": -117.8678,
    "estimated_gates": 23,
    "runways": 1,
    "hub_size": "medium"
  },
  {
    "iata": "OAK",
    "icao": "KOAK",
    "name": "Oakland International Airport",
    "city": "Oakland",
    "state": "CA",
    "region": "West",
    "latitude": 37.7213,
    "longitude": -122.2208,
    "estimated_gates": 29,
    "runways": 2,
    "hub_size": "medium"
  },
  {
    "iata": "SJC",
    "icao": "KSJC",
    "name": "San Jose International Airport",
    "city": "San Jose",
    "state": "CA",
    "region": "West",
    "latitude": 37.3626,
    "longitude": -121.9290,
    "estimated_gates": 30,
    "runways": 2,
    "hub_size": "medium"
  },
  {
    "iata": "SAT",
    "icao": "KSAT",
    "name": "San Antonio International Airport",
    "city": "San Antonio",
    "state": "TX",
    "region": "Southwest",
    "latitude": 29.5337,
    "longitude": -98.4698,
    "estimated_gates": 25,
    "runways": 2,
    "hub_size": "medium"
  },
  {
    "iata": "CLE",
    "icao": "KCLE",
    "name": "Cleveland Hopkins International Airport",
    "city": "Cleveland",
    "state": "OH",
    "region": "Midwest",
    "latitude": 41.4117,
    "longitude": -81.8498,
    "estimated_gates": 40,
    "runways": 3,
    "hub_size": "medium"
  },
  {
    "iata": "CMH",
    "icao": "KCMH",
    "name": "John Glenn Columbus International Airport",
    "city": "Columbus",
    "state": "OH",
    "region": "Midwest",
    "latitude": 39.9981,
    "longitude": -82.8919,
    "estimated_gates": 28,
    "runways": 3,
    "hub_size": "medium"
  },
  {
    "iata": "IND",
    "icao": "KIND",
    "name": "Indianapolis International Airport",
    "city": "Indianapolis",
    "state": "IN",
    "region": "Midwest",
    "latitude": 39.7173,
    "longitude": -86.2944,
    "estimated_gates": 40,
    "runways": 3,
    "hub_size": "medium"
  },
  {
    "iata": "MKE",
    "icao": "KMKE",
    "name": "Milwaukee Mitchell International Airport",
    "city": "Milwaukee",
    "state": "WI",
    "region": "Midwest",
    "latitude": 42.9472,
    "longitude": -87.8966,
    "estimated_gates": 35,
    "runways": 3,
    "hub_size": "small"
  },
  {
    "iata": "CVG",
    "icao": "KCVG",
    "name": "Cincinnati/Northern Kentucky International Airport",
    "city": "Cincinnati",
    "state": "KY",
    "region": "Southeast",
    "latitude": 39.0488,
    "longitude": -84.6678,
    "estimated_gates": 52,
    "runways": 4,
    "hub_size": "medium"
  },
  {
    "iata": "JAX",
    "icao": "KJAX",
    "name": "Jacksonville International Airport",
    "city": "Jacksonville",
    "state": "FL",
    "region": "Southeast",
    "latitude": 30.4941,
    "longitude": -81.6879,
    "estimated_gates": 20,
    "runways": 2,
    "hub_size": "small"
  },
  {
    "iata": "ANC",
    "icao": "PANC",
    "name": "Ted Stevens Anchorage International Airport",
    "city": "Anchorage",
    "state": "AK",
    "region": "Pacific",
    "latitude": 61.1743,
    "longitude": -149.9982,
    "estimated_gates": 28,
    "runways": 3,
    "hub_size": "medium"
  },
  {
    "iata": "SDF",
    "icao": "KSDF",
    "name": "Louisville Muhammad Ali International Airport",
    "city": "Louisville",
    "state": "KY",
    "region": "Southeast",
    "latitude": 38.1744,
    "longitude": -85.7360,
    "estimated_gates": 23,
    "runways": 2,
    "hub_size": "small"
  },
  {
    "iata": "RIC",
    "icao": "KRIC",
    "name": "Richmond International Airport",
    "city": "Richmond",
    "state": "VA",
    "region": "Southeast",
    "latitude": 37.5052,
    "longitude": -77.3197,
    "estimated_gates": 16,
    "runways": 2,
    "hub_size": "small"
  },
  {
    "iata": "SAV",
    "icao": "KSAV",
    "name": "Savannah/Hilton Head International Airport",
    "city": "Savannah",
    "state": "GA",
    "region": "Southeast",
    "latitude": 32.1276,
    "longitude": -81.2021,
    "estimated_gates": 14,
    "runways": 2,
    "hub_size": "small"
  },
  {
    "iata": "HOU",
    "icao": "KHOU",
    "name": "William P. Hobby Airport",
    "city": "Houston",
    "state": "TX",
    "region": "Southwest",
    "latitude": 29.6454,
    "longitude": -95.2789,
    "estimated_gates": 38,
    "runways": 4,
    "hub_size": "medium"
  },
  {
    "iata": "MDW",
    "icao": "KMDW",
    "name": "Chicago Midway International Airport",
    "city": "Chicago",
    "state": "IL",
    "region": "Midwest",
    "latitude": 41.7868,
    "longitude": -87.7522,
    "estimated_gates": 43,
    "runways": 5,
    "hub_size": "medium"
  },
  {
    "iata": "BDL",
    "icao": "KBDL",
    "name": "Bradley International Airport",
    "city": "Hartford",
    "state": "CT",
    "region": "New England",
    "latitude": 41.9389,
    "longitude": -72.6832,
    "estimated_gates": 20,
    "runways": 2,
    "hub_size": "small"
  },
  {
    "iata": "PVD",
    "icao": "KPVD",
    "name": "Rhode Island T.F. Green International Airport",
    "city": "Providence",
    "state": "RI",
    "region": "New England",
    "latitude": 41.7250,
    "longitude": -71.4282,
    "estimated_gates": 14,
    "runways": 2,
    "hub_size": "small"
  },
  {
    "iata": "MHT",
    "icao": "KMHT",
    "name": "Manchester-Boston Regional Airport",
    "city": "Manchester",
    "state": "NH",
    "region": "New England",
    "latitude": 42.9326,
    "longitude": -71.4357,
    "estimated_gates": 12,
    "runways": 2,
    "hub_size": "small"
  },
  {
    "iata": "PWM",
    "icao": "KPWM",
    "name": "Portland International Jetport",
    "city": "Portland",
    "state": "ME",
    "region": "New England",
    "latitude": 43.6462,
    "longitude": -70.3087,
    "estimated_gates": 11,
    "runways": 2,
    "hub_size": "small"
  },
  {
    "iata": "BTV",
    "icao": "KBTV",
    "name": "Burlington International Airport",
    "city": "Burlington",
    "state": "VT",
    "region": "New England",
    "latitude": 44.4720,
    "longitude": -73.1533,
    "estimated_gates": 8,
    "runways": 2,
    "hub_size": "non-hub"
  },
  {
    "iata": "OKC",
    "icao": "KOKC",
    "name": "Will Rogers World Airport",
    "city": "Oklahoma City",
    "state": "OK",
    "region": "Southwest",
    "latitude": 35.3931,
    "longitude": -97.6007,
    "estimated_gates": 22,
    "runways": 3,
    "hub_size": "small"
  },
  {
    "iata": "TUL",
    "icao": "KTUL",
    "name": "Tulsa International Airport",
    "city": "Tulsa",
    "state": "OK",
    "region": "Southwest",
    "latitude": 36.1984,
    "longitude": -95.8881,
    "estimated_gates": 15,
    "runways": 3,
    "hub_size": "small"
  },
  {
    "iata": "ABQ",
    "icao": "KABQ",
    "name": "Albuquerque International Sunport",
    "city": "Albuquerque",
    "state": "NM",
    "region": "Southwest",
    "latitude": 35.0402,
    "longitude": -106.6090,
    "estimated_gates": 24,
    "runways": 3,
    "hub_size": "small"
  },
  {
    "iata": "ELP",
    "icao": "KELP",
    "name": "El Paso International Airport",
    "city": "El Paso",
    "state": "TX",
    "region": "Southwest",
    "latitude": 31.8072,
    "longitude": -106.3778,
    "estimated_gates": 14,
    "runways": 3,
    "hub_size": "small"
  },
  {
    "iata": "BOI",
    "icao": "KBOI",
    "name": "Boise Airport",
    "city": "Boise",
    "state": "ID",
    "region": "Mountain",
    "latitude": 43.5644,
    "longitude": -116.2228,
    "estimated_gates": 16,
    "runways": 2,
    "hub_size": "small"
  },
  {
    "iata": "RNO",
    "icao": "KRNO",
    "name": "Reno-Tahoe International Airport",
    "city": "Reno",
    "state": "NV",
    "region": "Mountain",
    "latitude": 39.4991,
    "longitude": -119.7681,
    "estimated_gates": 20,
    "runways": 2,
    "hub_size": "small"
  }
]
